[
    {
        "id": "af",
        "name": "Afghanistan",
        "officialName": "Islamic Republic of Afghanistan",
        "capitalCities": ["Kabul"],
        "continents": ["Asia"],
        "coordinates": {
            "latitude": 33.93911,
            "longitude": 67.709953
        }
    },
    {
        "id": "al",
        "name": "Albania",
        "officialName": "Republic of Albania",
        "capitalCities": ["Tirana"],
        "continents": ["Europe"],
        "coordinates": {
            "latitude": 41.153332,
            "longitude": 20.168331
        }
    },
    {
        "id": "dz",
        "name": "Algeria",
        "officialName": "People's Democratic Republic of Algeria",
        "capitalCities": ["Algiers"],
        "continents": ["Africa"],
        "coordinates": {
            "latitude": 28.033886,
            "longitude": 1.659626
        }
    },
    {
        "id": "ad",
        "name": "Andorra",
        "officialName": "Principality of Andorra",
        "capitalCities": ["Andorra la Velle"],
        "continents": ["Europe"],
        "coordinates": {
            "latitude": 42.546245,
            "longitude": 1.601554
        }
    },
    {
        "id": "ao",
        "name": "Angola",
        "officialName": "Republic of Angola",
        "capitalCities": ["Luanda"],
        "continents": ["Africa"],
        "coordinates": {
            "latitude": -11.202692,
            "longitude": 17.873887
        }
    },
    {
        "id": "ag",
        "name": "Antigua and Barbuda",
        "officialName": "Antigua and Barbuda",
        "capitalCities": ["Saint John's"],
        "continents": ["North America"],
        "coordinates": {
            "latitude": 17.060816,
            "longitude": -61.796428
        }
    },
    {
        "id": "ar",
        "name": "Argentina",
        "officialName": "Argentine Republic",
        "capitalCities": ["Buenos Aires"],
        "continents": ["South America"],
        "coordinates": {
            "latitude": -38.416097,
            "longitude": -63.616672
        }
    },
    {
        "id": "am",
        "name": "Armenia",
        "officialName": "Republic of Armenia",
        "capitalCities": ["Yerevan"],
        "continents": ["Asia"],
        "coordinates": {
            "latitude": 40.069099,
            "longitude": 45.038189
        }
    },
    {
        "id": "au",
        "name": "Australia",
        "officialName": "Commonwealth of Australia",
        "capitalCities": ["Canberra"],
        "continents": ["Oceania"],
        "coordinates": {
            "latitude": -25.274398,
            "longitude": 133.775136
        }
    },
    {
        "id": "at",
        "name": "Austria",
        "officialName": "Republic of Austria",
        "capitalCities": ["Vienna"],
        "continents": ["Europe"],
        "coordinates": {
            "latitude": 47.516231,
            "longitude": 14.550072
        }
    },
    {
        "id": "az",
        "name": "Azerbaijan",
        "officialName": "Republic of Azerbaijan",
        "capitalCities": ["Baku"],
        "continents": ["Asia"],
        "coordinates": {
            "latitude": 40.143105,
            "longitude": 47.576927
        }
    },
    {
        "id": "bs",
        "name": "Bahamas",
        "officialName": "Commonwealth of the Bahamas",
        "capitalCities": ["Nassau"],
        "continents": ["North America"],
        "coordinates": {
            "latitude": 25.03428,
            "longitude": -77.39628
        }
    },
    {
        "id": "bh",
        "name": "Bahrain",
        "officialName": "Kingdom of Bahrain",
        "capitalCities": ["Manama"],
        "continents": ["Asia"],
        "coordinates": {
            "latitude": 25.930414,
            "longitude": 50.637772
        }
    },
    {
        "id": "bd",
        "name": "Bangladesh",
        "officialName": "People's Republic of Bangladesh",
        "capitalCities": ["Dhaka"],
        "continents": ["Asia"],
        "coordinates": {
            "latitude": 23.684994,
            "longitude": 90.356331
        }
    },
    {
        "id": "bb",
        "name": "Barbados",
        "officialName": "Barbados",
        "capitalCities": ["Bridgetown"],
        "continents": ["North America"],
        "coordinates": {
            "latitude": 13.193887,
            "longitude": -59.543198
        }
    },
    {
        "id": "by",
        "name": "Belarus",
        "officialName": "Republic of Belarus",
        "capitalCities": ["Minsk"],
        "continents": ["Europe"],
        "coordinates": {
            "latitude": 53.709807,
            "longitude": 27.953389
        }
    },
    {
        "id": "be",
        "name": "Belgium",
        "officialName": "Kingdom of Belgium",
        "capitalCities": ["Brussels"],
        "continents": ["Europe"],
        "coordinates": {
            "latitude": 50.503887,
            "longitude": 4.469936
        }
    },
    {
        "id": "bz",
        "name": "Belize",
        "officialName": "Belize",
        "capitalCities": ["Belmopan"],
        "continents": ["North America"],
        "coordinates": {
            "latitude": 17.189877,
            "longitude": -88.49765
        }
    },
    {
        "id": "bj",
        "name": "Benin",
        "officialName": "Republic of Benin",
        "capitalCities": ["Porto-Novo"],
        "continents": ["Africa"],
        "coordinates": {
            "latitude": 9.30769,
            "longitude": 2.315834
        }
    },
    {
        "id": "bt",
        "name": "Bhutan",
        "officialName": "Kingdom of Bhutan",
        "capitalCities": ["Thimphu"],
        "continents": ["Asia"],
        "coordinates": {
            "latitude": 27.514162,
            "longitude": 90.433601
        }
    },
    {
        "id": "bo",
        "name": "Bolivia",
        "officialName": "Plurinational State of Bolivia",
        "capitalCities": ["Sucre"],
        "continents": ["South America"],
        "coordinates": {
            "latitude": -16.290154,
            "longitude": -63.588653
        }
    },
    {
        "id": "ba",
        "name": "Bosnia and Herzegovina",
        "officialName": "Bosnia and Herzegovina",
        "capitalCities": ["Sarajevo"],
        "continents": ["Europe"],
        "coordinates": {
            "latitude": 43.915886,
            "longitude": 17.679076
        }
    },
    {
        "id": "bw",
        "name": "Botswana",
        "officialName": "Republic of Botswana",
        "capitalCities": ["Gaborone"],
        "continents": ["Africa"],
        "coordinates": {
            "latitude": -22.328474,
            "longitude": 24.684866
        }
    },
    {
        "id": "br",
        "name": "Brazil",
        "officialName": "Federative Republic of Brazil",
        "capitalCities": ["Brasília"],
        "continents": ["South America"],
        "coordinates": {
            "latitude": -14.235004,
            "longitude": -51.92528
        }
    },
    {
        "id": "bn",
        "name": "Brunei",
        "officialName": "Nation of Brunei, Abode of Peace",
        "capitalCities": ["Bandar Seri Begawan"],
        "continents": ["Asia"],
        "coordinates": {
            "latitude": 4.535277,
            "longitude": 114.727669
        }
    },
    {
        "id": "bg",
        "name": "Bulgaria",
        "officialName": "Republic of Bulgaria",
        "capitalCities": ["Sofia"],
        "continents": ["Europe"],
        "coordinates": {
            "latitude": 42.733883,
            "longitude": 25.48583
        }
    },
    {
        "id": "bf",
        "name": "Burkina Faso",
        "officialName": "Burkina Faso",
        "capitalCities": ["Ouagadougou"],
        "continents": ["Africa"],
        "coordinates": {
            "latitude": 12.238333,
            "longitude": -1.561593
        }
    },
    {
        "id": "bi",
        "name": "Burundi",
        "officialName": "Republic of Burundi",
        "capitalCities": ["Gitega"],
        "continents": ["Africa"],
        "coordinates": {
            "latitude": -3.373056,
            "longitude": 29.918886
        }
    },
    {
        "id": "kh",
        "name": "Cambodia",
        "officialName": "Kingdom of Cambodia",
        "capitalCities": ["Phnom Penh"],
        "continents": ["Asia"],
        "coordinates": {
            "latitude": 12.565679,
            "longitude": 104.990963
        }
    },
    {
        "id": "cm",
        "name": "Cameroon",
        "officialName": "Republic of Cameroon",
        "capitalCities": ["Yaoundé"],
        "continents": ["Africa"],
        "coordinates": {
            "latitude": 7.369722,
            "longitude": 12.354722
        }
    },
    {
        "id": "ca",
        "name": "Canada",
        "officialName": "Canada",
        "capitalCities": ["Ottawa"],
        "continents": ["North America"],
        "coordinates": {
            "latitude": 56.130366,
            "longitude": -106.346771
        }
    },
    {
        "id": "cv",
        "name": "Cape Verde",
        "officialName": "Republic of Cabo Verde",
        "capitalCities": ["Praia"],
        "continents": ["Africa"],
        "coordinates": {
            "latitude": 16.002082,
            "longitude": -24.013197
        }
    },
    {
        "id": "cf",
        "name": "Central African Republic",
        "officialName": "Central African Republic",
        "capitalCities": ["Bangui"],
        "continents": ["Africa"],
        "coordinates": {
            "latitude": 6.611111,
            "longitude": 20.939444
        }
    },
    {
        "id": "td",
        "name": "Chad",
        "officialName": "Republic of Chad",
        "capitalCities": ["N'Djamena"],
        "continents": ["Africa"],
        "coordinates": {
            "latitude": 15.454166,
            "longitude": 18.732207
        }
    },
    {
        "id": "cl",
        "name": "Chile",
        "officialName": "Republic of Chile",
        "capitalCities": ["Santiago"],
        "continents": ["South America"],
        "coordinates": {
            "latitude": -35.675147,
            "longitude": -71.542969
        }
    },
    {
        "id": "cn",
        "name": "China",
        "officialName": "People's Republic of China",
        "capitalCities": ["Beijing"],
        "continents": ["Asia"],
        "coordinates": {
            "latitude": 35.86166,
            "longitude": 104.195397
        }
    },
    {
        "id": "co",
        "name": "Colombia",
        "officialName": "Republic of Colombia",
        "capitalCities": ["Bogotá"],
        "continents": ["South America"],
        "coordinates": {
            "latitude": 4.570868,
            "longitude": -74.297333
        }
    },
    {
        "id": "km",
        "name": "Comoros",
        "officialName": "Union of the Comoros",
        "capitalCities": ["Moroni"],
        "continents": ["Africa"],
        "coordinates": {
            "latitude": -11.875001,
            "longitude": 43.872219
        }
    },
    {
        "id": "cg",
        "name": "Republic of the Congo",
        "officialName": "Republic of the Congo",
        "capitalCities": ["Brazzaville"],
        "continents": ["Africa"],
        "coordinates": {
            "latitude": -0.228021,
            "longitude": 15.827659
        }
    },
    {
        "id": "cd",
        "name": "Democratic Republic of the Congo",
        "officialName": "Democratic Republic of the Congo",
        "capitalCities": ["Kinshasa"],
        "continents": ["Africa"],
        "coordinates": {
            "latitude": -4.038333,
            "longitude": 21.758664
        }
    },
    {
        "id": "cr",
        "name": "Costa Rica",
        "officialName": "Republic of Costa Rica",
        "capitalCities": ["San José"],
        "continents": ["North America"],
        "coordinates": {
            "latitude": 9.748917,
            "longitude": -83.753428
        }
    },
    {
        "id": "ci",
        "name": "Côte d'Ivoire",
        "officialName": "Republic of Côte d'Ivoire",
        "capitalCities": ["Yamoussoukro"],
        "continents": ["Africa"],
        "coordinates": {
            "latitude": 7.539989,
            "longitude": -5.54708
        }
    },
    {
        "id": "hr",
        "name": "Croatia",
        "officialName": "Republic of Croatia",
        "capitalCities": ["Zagreb"],
        "continents": ["Europe"],
        "coordinates": {
            "latitude": 45.1,
            "longitude": 15.2
        }
    },
    {
        "id": "cu",
        "name": "Cuba",
        "officialName": "Republic of Cuba",
        "capitalCities": ["Havana"],
        "continents": ["North America"],
        "coordinates": {
            "latitude": 21.521757,
            "longitude": -77.781167
        }
    },
    {
        "id": "cy",
        "name": "Cyprus",
        "officialName": "Republic of Cyprus",
        "capitalCities": ["Nicosia"],
        "continents": ["Europe"],
        "coordinates": {
            "latitude": 35.126413,
            "longitude": 33.429859
        }
    },
    {
        "id": "cz",
        "name": "Czechia",
        "officialName": "Czech Republic",
        "capitalCities": ["Prague"],
        "continents": ["Europe"],
        "coordinates": {
            "latitude": 49.817492,
            "longitude": 15.472962
        }
    },
    {
        "id": "dk",
        "name": "Denmark",
        "officialName": "Kingdom of Denmark",
        "capitalCities": ["Copenhagen"],
        "continents": ["Europe"],
        "coordinates": {
            "latitude": 56.26392,
            "longitude": 9.501785
        }
    },
    {
        "id": "dj",
        "name": "Djibouti",
        "officialName": "Republic of Djibouti",
        "capitalCities": ["Djibouti"],
        "continents": ["Africa"],
        "coordinates": {
            "latitude": 11.825138,
            "longitude": 42.590275
        }
    },
    {
        "id": "dm",
        "name": "Dominica",
        "officialName": "Commonwealth of Dominica",
        "capitalCities": ["Roseau"],
        "continents": ["North America"],
        "coordinates": {
            "latitude": 15.414999,
            "longitude": -61.370976
        }
    },
    {
        "id": "do",
        "name": "Dominican Republic",
        "officialName": "Dominican Republic",
        "capitalCities": ["Santo Domingo"],
        "continents": ["North America"],
        "coordinates": {
            "latitude": 18.735693,
            "longitude": -70.162651
        }
    },
    {
        "id": "ec",
        "name": "Ecuador",
        "officialName": "Republic of Ecuador",
        "capitalCities": ["Quito"],
        "continents": ["South America"],
        "coordinates": {
            "latitude": -1.831239,
            "longitude": -78.183406
        }
    },
    {
        "id": "eg",
        "name": "Egypt",
        "officialName": "Arab Republic of Egypt",
        "capitalCities": ["Cairo"],
        "continents": ["Africa"],
        "coordinates": {
            "latitude": 26.820553,
            "longitude": 30.802498
        }
    },
    {
        "id": "sv",
        "name": "El Salvador",
        "officialName": "Republic of El Salvador",
        "capitalCities": ["San Salvador"],
        "continents": ["North America"],
        "coordinates": {
            "latitude": 13.794185,
            "longitude": -88.89653
        }
    },
    {
        "id": "gq",
        "name": "Equatorial Guinea",
        "officialName": "Republic of Equatorial Guinea",
        "capitalCities": ["Malabo"],
        "continents": ["Africa"],
        "coordinates": {
            "latitude": 1.650801,
            "longitude": 10.267895
        }
    },
    {
        "id": "er",
        "name": "Eritrea",
        "officialName": "State of Eritrea",
        "capitalCities": ["Asmara"],
        "continents": ["Africa"],
        "coordinates": {
            "latitude": 15.179384,
            "longitude": 39.782334
        }
    },
    {
        "id": "ee",
        "name": "Estonia",
        "officialName": "Republic of Estonia",
        "capitalCities": ["Tallinn"],
        "continents": ["Europe"],
        "coordinates": {
            "latitude": 58.595272,
            "longitude": 25.013607
        }
    },
    {
        "id": "sz",
        "name": "Eswatini",
        "officialName": "Kingdom of Eswatini",
        "capitalCities": ["Lobamba"],
        "continents": ["Africa"],
        "coordinates": {
            "latitude": -26.522503,
            "longitude": 31.465866
        }
    },
    {
        "id": "et",
        "name": "Ethiopia",
        "officialName": "Federal Democratic Republic of Ethiopia",
        "capitalCities": ["Addis Ababa"],
        "continents": ["Africa"],
        "coordinates": {
            "latitude": 9.145,
            "longitude": 40.489673
        }
    },
    {
        "id": "fj",
        "name": "Fiji",
        "officialName": "Republic of Fiji",
        "capitalCities": ["Suva"],
        "continents": ["Oceania"],
        "coordinates": {
            "latitude": -16.578193,
            "longitude": 179.414413
        }
    },
    {
        "id": "fi",
        "name": "Finland",
        "officialName": "Republic of Finland",
        "capitalCities": ["Helsinki"],
        "continents": ["Europe"],
        "coordinates": {
            "latitude": 61.92411,
            "longitude": 25.748151
        }
    },
    {
        "id": "fr",
        "name": "France",
        "officialName": "French Republic",
        "capitalCities": ["Paris"],
        "continents": ["Europe"],
        "coordinates": {
            "latitude": 46.227638,
            "longitude": 2.213749
        }
    },
    {
        "id": "ga",
        "name": "Gabon",
        "officialName": "Gabonese Republic",
        "capitalCities": ["Libreville"],
        "continents": ["Africa"],
        "coordinates": {
            "latitude": -0.803689,
            "longitude": 11.609444
        }
    },
    {
        "id": "gm",
        "name": "Gambia",
        "officialName": "Republic of the Gambia",
        "capitalCities": ["Banjul"],
        "continents": ["Africa"],
        "coordinates": {
            "latitude": 13.443182,
            "longitude": -15.310139
        }
    },
    {
        "id": "ge",
        "name": "Georgia",
        "officialName": "Georgia",
        "capitalCities": ["Tbilisi"],
        "continents": ["Asia"],
        "coordinates": {
            "latitude": 42.315407,
            "longitude": 43.356892
        }
    },
    {
        "id": "de",
        "name": "Germany",
        "officialName": "Federal Republic of Germany",
        "capitalCities": ["Berlin"],
        "continents": ["Europe"],
        "coordinates": {
            "latitude": 51.165691,
            "longitude": 10.451526
        }
    },
    {
        "id": "gh",
        "name": "Ghana",
        "officialName": "Republic of Ghana",
        "capitalCities": ["Accra"],
        "continents": ["Africa"],
        "coordinates": {
            "latitude": 7.946527,
            "longitude": -1.023194
        }
    },
    {
        "id": "gr",
        "name": "Greece",
        "officialName": "Hellenic Republic",
        "capitalCities": ["Athens"],
        "continents": ["Europe"],
        "coordinates": {
            "latitude": 39.074208,
            "longitude": 21.824312
        }
    },
    {
        "id": "gd",
        "name": "Grenada",
        "officialName": "Grenada",
        "capitalCities": ["Saint George's"],
        "continents": ["North America"],
        "coordinates": {
            "latitude": 12.262776,
            "longitude": -61.604171
        }
    },
    {
        "id": "gt",
        "name": "Guatemala",
        "officialName": "Republic of Guatemala",
        "capitalCities": ["Guatemala City"],
        "continents": ["North America"],
        "coordinates": {
            "latitude": 15.783471,
            "longitude": -90.230759
        }
    },
    {
        "id": "gn",
        "name": "Guinea",
        "officialName": "Republic of Guinea",
        "capitalCities": ["Conakry"],
        "continents": ["Africa"],
        "coordinates": {
            "latitude": 9.945587,
            "longitude": -9.696645
        }
    },
    {
        "id": "gw",
        "name": "Guinea-Bissau",
        "officialName": "Republic of Guinea-Bissau",
        "capitalCities": ["Bissau"],
        "continents": ["Africa"],
        "coordinates": {
            "latitude": 11.803749,
            "longitude": -15.180413
        }
    },
    {
        "id": "gy",
        "name": "Guyana",
        "officialName": "Co-operative Republic of Guyana",
        "capitalCities": ["Georgetown"],
        "continents": ["South America"],
        "coordinates": {
            "latitude": 4.860416,
            "longitude": -58.93018
        }
    },
    {
        "id": "ht",
        "name": "Haiti",
        "officialName": "Republic of Haiti",
        "capitalCities": ["Port-au-Prince"],
        "continents": ["North America"],
        "coordinates": {
            "latitude": 18.971187,
            "longitude": -72.285215
        }
    },
    {
        "id": "hn",
        "name": "Honduras",
        "officialName": "Republic of Honduras",
        "capitalCities": ["Tegucigalpa"],
        "continents": ["North America"],
        "coordinates": {
            "latitude": 15.199999,
            "longitude": -86.241905
        }
    },
    {
        "id": "hu",
        "name": "Hungary",
        "officialName": "Hungary",
        "capitalCities": ["Budapest"],
        "continents": ["Europe"],
        "coordinates": {
            "latitude": 47.162494,
            "longitude": 19.503304
        }
    },
    {
        "id": "is",
        "name": "Iceland",
        "officialName": "Iceland",
        "capitalCities": ["Reykjavik"],
        "continents": ["Europe"],
        "coordinates": {
            "latitude": 64.963051,
            "longitude": -19.020835
        }
    },
    {
        "id": "in",
        "name": "India",
        "officialName": "Republic of India",
        "capitalCities": ["New Delhi"],
        "continents": ["Asia"],
        "coordinates": {
            "latitude": 20.593684,
            "longitude": 78.96288
        }
    },
    {
        "id": "id",
        "name": "Indonesia",
        "officialName": "Republic of Indonesia",
        "capitalCities": ["Jakarta"],
        "continents": ["Asia", "Oceania"],
        "coordinates": {
            "latitude": -0.789275,
            "longitude": 113.921327
        }
    },
    {
        "id": "ir",
        "name": "Iran",
        "officialName": "Islamic Republic of Iran",
        "capitalCities": ["Tehran"],
        "continents": ["Asia"],
        "coordinates": {
            "latitude": 32.427908,
            "longitude": 53.688046
        }
    },
    {
        "id": "iq",
        "name": "Iraq",
        "officialName": "Republic of Iraq",
        "capitalCities": ["Baghdad"],
        "continents": ["Asia"],
        "coordinates": {
            "latitude": 33.223191,
            "longitude": 43.679291
        }
    },
    {
        "id": "ie",
        "name": "Ireland",
        "officialName": "Republic of Ireland",
        "capitalCities": ["Dublin"],
        "continents": ["Europe"],
        "coordinates": {
            "latitude": 53.41291,
            "longitude": -8.24389
        }
    },
    {
        "id": "il",
        "name": "Israel",
        "officialName": "State of Israel",
        "capitalCities": ["Jerusalem"],
        "continents": ["Asia"],
        "coordinates": {
            "latitude": 31.046051,
            "longitude": 34.851612
        }
    },
    {
        "id": "it",
        "name": "Italy",
        "officialName": "Italian Republic",
        "capitalCities": ["Rome"],
        "continents": ["Europe"],
        "coordinates": {
            "latitude": 41.87194,
            "longitude": 12.56738
        }
    },
    {
        "id": "jm",
        "name": "Jamaica",
        "officialName": "Jamaica",
        "capitalCities": ["Kingston"],
        "continents": ["North America"],
        "coordinates": {
            "latitude": 18.109581,
            "longitude": -77.297508
        }
    },
    {
        "id": "jp",
        "name": "Japan",
        "officialName": "Japan",
        "capitalCities": ["Tokyo"],
        "continents": ["Asia"],
        "coordinates": {
            "latitude": 36.204824,
            "longitude": 138.252924
        }
    },
    {
        "id": "jo",
        "name": "Jordan",
        "officialName": "Hashemite Kingdom of Jordan",
        "capitalCities": ["Amman"],
        "continents": ["Asia"],
        "coordinates": {
            "latitude": 30.585164,
            "longitude": 36.238414
        }
    },
    {
        "id": "kz",
        "name": "Kazakhstan",
        "officialName": "Republic of Kazakhstan",
        "capitalCities": ["Nur-Sultan"],
        "continents": ["Asia"],
        "coordinates": {
            "latitude": 48.019573,
            "longitude": 66.923684
        }
    },
    {
        "id": "ke",
        "name": "Kenya",
        "officialName": "Republic of Kenya",
        "capitalCities": ["Nairobi"],
        "continents": ["Africa"],
        "coordinates": {
            "latitude": -0.023559,
            "longitude": 37.906193
        }
    },
    {
        "id": "ki",
        "name": "Kiribati",
        "officialName": "Independent and Sovereign Republic of Kiribati",
        "capitalCities": ["South Tarawa"],
        "continents": ["Oceania"],
        "coordinates": {
            "latitude": -3.370417,
            "longitude": -168.734039
        }
    },
    {
        "id": "kp",
        "name": "North Korea",
        "officialName": "Democratic People's Republic of Korea",
        "capitalCities": ["Pyongyang"],
        "continents": ["Asia"],
        "coordinates": {
            "latitude": 40.339852,
            "longitude": 127.510093
        }
    },
    {
        "id": "kr",
        "name": "South Korea",
        "officialName": "Republic of Korea",
        "capitalCities": ["Seoul"],
        "continents": ["Asia"],
        "coordinates": {
            "latitude": 35.907757,
            "longitude": 127.766922
        }
    },
    {
        "id": "kw",
        "name": "Kuwait",
        "officialName": "State of Kuwait",
        "capitalCities": ["Kuwait City"],
        "continents": ["Asia"],
        "coordinates": {
            "latitude": 29.31166,
            "longitude": 47.481766
        }
    },
    {
        "id": "kg",
        "name": "Kyrgyzstan",
        "officialName": "Kyrgyz Republic",
        "capitalCities": ["Bishkek"],
        "continents": ["Asia"],
        "coordinates": {
            "latitude": 41.20438,
            "longitude": 74.766098
        }
    },
    {
        "id": "la",
        "name": "Laos",
        "officialName": "Lao People's Democratic Republic",
        "capitalCities": ["Vientiane"],
        "continents": ["Asia"],
        "coordinates": {
            "latitude": 19.85627,
            "longitude": 102.495496
        }
    },
    {
        "id": "lv",
        "name": "Latvia",
        "officialName": "Republic of Latvia",
        "capitalCities": ["Riga"],
        "continents": ["Europe"],
        "coordinates": {
            "latitude": 56.879635,
            "longitude": 24.603189
        }
    },
    {
        "id": "lb",
        "name": "Lebanon",
        "officialName": "Lebanese Republic",
        "capitalCities": ["Beirut"],
        "continents": ["Asia"],
        "coordinates": {
            "latitude": 33.854721,
            "longitude": 35.862285
        }
    },
    {
        "id": "ls",
        "name": "Lesotho",
        "officialName": "Kingdom of Lesotho",
        "capitalCities": ["Maseru"],
        "continents": ["Africa"],
        "coordinates": {
            "latitude": -29.609988,
            "longitude": 28.233608
        }
    },
    {
        "id": "lr",
        "name": "Liberia",
        "officialName": "Republic of Liberia",
        "capitalCities": ["Monrovia"],
        "continents": ["Africa"],
        "coordinates": {
            "latitude": 6.428055,
            "longitude": -9.429499
        }
    },
    {
        "id": "ly",
        "name": "Libya",
        "officialName": "State of Libya",
        "capitalCities": ["Tripoli"],
        "continents": ["Africa"],
        "coordinates": {
            "latitude": 26.3351,
            "longitude": 17.228331
        }
    },
    {
        "id": "li",
        "name": "Liechtenstein",
        "officialName": "Principality of Liechtenstein",
        "capitalCities": ["Vaduz"],
        "continents": ["Europe"],
        "coordinates": {
            "latitude": 47.166,
            "longitude": 9.555373
        }
    },
    {
        "id": "lt",
        "name": "Lithuania",
        "officialName": "Republic of Lithuania",
        "capitalCities": ["Vilnius"],
        "continents": ["Europe"],
        "coordinates": {
            "latitude": 55.169438,
            "longitude": 23.881275
        }
    },
    {
        "id": "lu",
        "name": "Luxembourg",
        "officialName": "Grand Duchy of Luxembourg",
        "capitalCities": ["Luxembourg"],
        "continents": ["Europe"],
        "coordinates": {
            "latitude": 49.815273,
            "longitude": 6.129583
        }
    },
    {
        "id": "mg",
        "name": "Madagascar",
        "officialName": "Republic of Madagascar",
        "capitalCities": ["Antananarivo"],
        "continents": ["Africa"],
        "coordinates": {
            "latitude": -18.766947,
            "longitude": 46.869107
        }
    },
    {
        "id": "mw",
        "name": "Malawi",
        "officialName": "Republic of Malawi",
        "capitalCities": ["Lilongwe"],
        "continents": ["Africa"],
        "coordinates": {
            "latitude": -13.254308,
            "longitude": 34.301525
        }
    },
    {
        "id": "my",
        "name": "Malaysia",
        "officialName": "Malaysia",
        "capitalCities": ["Kuala Lumpur"],
        "continents": ["Asia"],
        "coordinates": {
            "latitude": 4.210484,
            "longitude": 101.975766
        }
    },
    {
        "id": "mv",
        "name": "Maldives",
        "officialName": "Republic of the Maldives",
        "capitalCities": ["Malé"],
        "continents": ["Asia"],
        "coordinates": {
            "latitude": 3.202778,
            "longitude": 73.22068
        }
    },
    {
        "id": "ml",
        "name": "Mali",
        "officialName": "Republic of Mali",
        "capitalCities": ["Bamako"],
        "continents": ["Africa"],
        "coordinates": {
            "latitude": 17.570692,
            "longitude": -3.996166
        }
    },
    {
        "id": "mt",
        "name": "Malta",
        "officialName": "Republic of Malta",
        "capitalCities": ["Valletta"],
        "continents": ["Europe"],
        "coordinates": {
            "latitude": 35.937496,
            "longitude": 14.375416
        }
    },
    {
        "id": "mh",
        "name": "Marshall Islands",
        "officialName": "Republic of the Marshall Islands",
        "capitalCities": ["Majuro"],
        "continents": ["Oceania"],
        "coordinates": {
            "latitude": 7.131474,
            "longitude": 171.184478
        }
    },
    {
        "id": "mr",
        "name": "Mauritania",
        "officialName": "Islamic Republic of Mauritania",
        "capitalCities": ["Nouakchott"],
        "continents": ["Africa"],
        "coordinates": {
            "latitude": 21.00789,
            "longitude": -10.940835
        }
    },
    {
        "id": "mu",
        "name": "Mauritius",
        "officialName": "Republic of Mauritius",
        "capitalCities": ["Port Louis"],
        "continents": ["Africa"],
        "coordinates": {
            "latitude": -20.348404,
            "longitude": 57.552152
        }
    },
    {
        "id": "mx",
        "name": "Mexico",
        "officialName": "United Mexican States",
        "capitalCities": ["Mexico City"],
        "continents": ["North America"],
        "coordinates": {
            "latitude": 23.634501,
            "longitude": -102.552784
        }
    },
    {
        "id": "fm",
        "name": "Micronesia",
        "officialName": "Federated States of Micronesia",
        "capitalCities": ["Palikir"],
        "continents": ["Oceania"],
        "coordinates": {
            "latitude": 7.425554,
            "longitude": 150.550812
        }
    },
    {
        "id": "md",
        "name": "Moldova",
        "officialName": "Republic of Moldova",
        "capitalCities": ["Chișinău"],
        "continents": ["Europe"],
        "coordinates": {
            "latitude": 47.411631,
            "longitude": 28.369885
        }
    },
    {
        "id": "mc",
        "name": "Monaco",
        "officialName": "Principality of Monaco",
        "capitalCities": ["Monaco"],
        "continents": ["Europe"],
        "coordinates": {
            "latitude": 43.750298,
            "longitude": 7.412841
        }
    },
    {
        "id": "mn",
        "name": "Mongolia",
        "officialName": "Mongolia",
        "capitalCities": ["Ulan Bator"],
        "continents": ["Asia"],
        "coordinates": {
            "latitude": 46.862496,
            "longitude": 103.846656
        }
    },
    {
        "id": "me",
        "name": "Montenegro",
        "officialName": "Montenegro",
        "capitalCities": ["Podgorica"],
        "continents": ["Europe"],
        "coordinates": {
            "latitude": 42.708678,
            "longitude": 19.37439
        }
    },
    {
        "id": "ma",
        "name": "Morocco",
        "officialName": "Kingdom of Morocco",
        "capitalCities": ["Rabat"],
        "continents": ["Africa"],
        "coordinates": {
            "latitude": 31.791702,
            "longitude": -7.09262
        }
    },
    {
        "id": "mz",
        "name": "Mozambique",
        "officialName": "Republic of Mozambique",
        "capitalCities": ["Maputo"],
        "continents": ["Africa"],
        "coordinates": {
            "latitude": -18.665695,
            "longitude": 35.529562
        }
    },
    {
        "id": "mm",
        "name": "Myanmar",
        "officialName": "Republic of the Union of Myanmar",
        "capitalCities": ["Naypyidaw"],
        "continents": ["Asia"],
        "coordinates": {
            "latitude": 21.913965,
            "longitude": 95.956223
        }
    },
    {
        "id": "na",
        "name": "Namibia",
        "officialName": "Republic of Namibia",
        "capitalCities": ["Windhoek"],
        "continents": ["Africa"],
        "coordinates": {
            "latitude": -22.95764,
            "longitude": 18.49041
        }
    },
    {
        "id": "nr",
        "name": "Nauru",
        "officialName": "Republic of Nauru",
        "capitalCities": ["Yaren"],
        "continents": ["Oceania"],
        "coordinates": {
            "latitude": -0.522778,
            "longitude": 166.931503
        }
    },
    {
        "id": "np",
        "name": "Nepal",
        "officialName": "Federal Democratic Republic of Nepal",
        "capitalCities": ["Kathmandu"],
        "continents": ["Asia"],
        "coordinates": {
            "latitude": 28.394857,
            "longitude": 84.124008
        }
    },
    {
        "id": "nl",
        "name": "Netherlands",
        "officialName": "Kingdom of the Netherlands",
        "capitalCities": ["Amsterdam"],
        "continents": ["Europe"],
        "coordinates": {
            "latitude": 52.132633,
            "longitude": 5.291266
        }
    },
    {
        "id": "nz",
        "name": "New Zealand",
        "officialName": "New Zealand",
        "capitalCities": ["Wellington"],
        "continents": ["Oceania"],
        "coordinates": {
            "latitude": -40.900557,
            "longitude": 174.885971
        }
    },
    {
        "id": "ni",
        "name": "Nicaragua",
        "officialName": "Republic of Nicaragua",
        "capitalCities": ["Managua"],
        "continents": ["North America"],
        "coordinates": {
            "latitude": 12.865416,
            "longitude": -85.207229
        }
    },
    {
        "id": "ne",
        "name": "Niger",
        "officialName": "Republic of Niger",
        "capitalCities": ["Niamey"],
        "continents": ["Africa"],
        "coordinates": {
            "latitude": 17.607789,
            "longitude": 8.081666
        }
    },
    {
        "id": "ng",
        "name": "Nigeria",
        "officialName": "Federal Republic of Nigeria",
        "capitalCities": ["Abuja"],
        "continents": ["Africa"],
        "coordinates": {
            "latitude": 9.081999,
            "longitude": 8.675277
        }
    },
    {
        "id": "mk",
        "name": "North Macedonia",
        "officialName": "Republic of North Macedonia",
        "capitalCities": ["Skopje"],
        "continents": ["Europe"],
        "coordinates": {
            "latitude": 41.608635,
            "longitude": 21.745275
        }
    },
    {
        "id": "no",
        "name": "Norway",
        "officialName": "Kingdom of Norway",
        "capitalCities": ["Oslo"],
        "continents": ["Europe"],
        "coordinates": {
            "latitude": 60.472024,
            "longitude": 8.468946
        }
    },
    {
        "id": "om",
        "name": "Oman",
        "officialName": "Sultanate of Oman",
        "capitalCities": ["Muscat"],
        "continents": ["Asia"],
        "coordinates": {
            "latitude": 21.512583,
            "longitude": 55.923255
        }
    },
    {
        "id": "pk",
        "name": "Pakistan",
        "officialName": "Islamic Republic of Pakistan",
        "capitalCities": ["Islamabad"],
        "continents": ["Asia"],
        "coordinates": {
            "latitude": 30.375321,
            "longitude": 69.345116
        }
    },
    {
        "id": "pw",
        "name": "Palau",
        "officialName": "Republic of Palau",
        "capitalCities": ["Ngerulmud"],
        "continents": ["Oceania"],
        "coordinates": {
            "latitude": 7.51498,
            "longitude": 134.58252
        }
    },
    {
        "id": "pa",
        "name": "Panama",
        "officialName": "Republic of Panama",
        "capitalCities": ["Panama City"],
        "continents": ["North America"],
        "coordinates": {
            "latitude": 8.537981,
            "longitude": -80.782127
        }
    },
    {
        "id": "pg",
        "name": "Papua New Guinea",
        "officialName": "Independent State of Papua New Guinea",
        "capitalCities": ["Port Moresby"],
        "continents": ["Oceania"],
        "coordinates": {
            "latitude": -6.314993,
            "longitude": 143.95555
        }
    },
    {
        "id": "py",
        "name": "Paraguay",
        "officialName": "Republic of Paraguay",
        "capitalCities": ["Asunción"],
        "continents": ["South America"],
        "coordinates": {
            "latitude": -23.442503,
            "longitude": -58.443832
        }
    },
    {
        "id": "pe",
        "name": "Peru",
        "officialName": "Republic of Peru",
        "capitalCities": ["Lima"],
        "continents": ["South America"],
        "coordinates": {
            "latitude": -9.189967,
            "longitude": -75.015152
        }
    },
    {
        "id": "ph",
        "name": "Philippines",
        "officialName": "Republic of the Philippines",
        "capitalCities": ["Manila"],
        "continents": ["Asia"],
        "coordinates": {
            "latitude": 12.879721,
            "longitude": 121.774017
        }
    },
    {
        "id": "pl",
        "name": "Poland",
        "officialName": "Republic of Poland",
        "capitalCities": ["Warsaw"],
        "continents": ["Europe"],
        "coordinates": {
            "latitude": 51.919438,
            "longitude": 19.145136
        }
    },
    {
        "id": "pt",
        "name": "Portugal",
        "officialName": "Portuguese Republic",
        "capitalCities": ["Lisbon"],
        "continents": ["Europe"],
        "coordinates": {
            "latitude": 39.399872,
            "longitude": -8.224454
        }
    },
    {
        "id": "qa",
        "name": "Qatar",
        "officialName": "State of Qatar",
        "capitalCities": ["Doha"],
        "continents": ["Asia"],
        "coordinates": {
            "latitude": 25.354826,
            "longitude": 51.183884
        }
    },
    {
        "id": "ro",
        "name": "Romania",
        "officialName": "Romania",
        "capitalCities": ["Bucharest"],
        "continents": ["Europe"],
        "coordinates": {
            "latitude": 45.943161,
            "longitude": 24.96676
        }
    },
    {
        "id": "ru",
        "name": "Russia",
        "officialName": "Russian Federation",
        "capitalCities": ["Moscow"],
        "continents": ["Asia", "Europe"],
        "coordinates": {
            "latitude": 61.52401,
            "longitude": 105.318756
        }
    },
    {
        "id": "rw",
        "name": "Rwanda",
        "officialName": "Republic of Rwanda",
        "capitalCities": ["Kigali"],
        "continents": ["Africa"],
        "coordinates": {
            "latitude": -1.940278,
            "longitude": 29.873888
        }
    },
    {
        "id": "kn",
        "name": "Saint Kitts and Nevis",
        "officialName": "Federation of Saint Christopher and Nevis",
        "capitalCities": ["Basseterre"],
        "continents": ["North America"],
        "coordinates": {
            "latitude": 17.357822,
            "longitude": -62.782998
        }
    },
    {
        "id": "lc",
        "name": "Saint Lucia",
        "officialName": "Saint Lucia",
        "capitalCities": ["Castries"],
        "continents": ["North America"],
        "coordinates": {
            "latitude": 13.909444,
            "longitude": -60.978893
        }
    },
    {
        "id": "vc",
        "name": "Saint Vincent and the Grenadines",
        "officialName": "Saint Vincent and the Grenadines",
        "capitalCities": ["Kingstown"],
        "continents": ["North America"],
        "coordinates": {
            "latitude": 12.984305,
            "longitude": -61.287228
        }
    },
    {
        "id": "ws",
        "name": "Samoa",
        "officialName": "Independent State of Samoa",
        "capitalCities": ["Apia"],
        "continents": ["Oceania"],
        "coordinates": {
            "latitude": -13.759029,
            "longitude": -172.104629
        }
    },
    {
        "id": "sm",
        "name": "San Marino",
        "officialName": "Most Serene Republic of San Marino",
        "capitalCities": ["City of San Marino"],
        "continents": ["Europe"],
        "coordinates": {
            "latitude": 43.94236,
            "longitude": 12.457777
        }
    },
    {
        "id": "st",
        "name": "São Tomé and Príncipe",
        "officialName": "Democratic Republic of São Tomé and Príncipe",
        "capitalCities": ["São Tomé"],
        "continents": ["Africa"],
        "coordinates": {
            "latitude": 0.18636,
            "longitude": 6.613081
        }
    },
    {
        "id": "sa",
        "name": "Saudi Arabia",
        "officialName": "Kingdom of Saudi Arabia",
        "capitalCities": ["Riyadh"],
        "continents": ["Asia"],
        "coordinates": {
            "latitude": 23.885942,
            "longitude": 45.079162
        }
    },
    {
        "id": "sn",
        "name": "Senegal",
        "officialName": "Republic of Senegal",
        "capitalCities": ["Dakar"],
        "continents": ["Africa"],
        "coordinates": {
            "latitude": 14.497401,
            "longitude": -14.452362
        }
    },
    {
        "id": "rs",
        "name": "Serbia",
        "officialName": "Republic of Serbia",
        "capitalCities": ["Belgrade"],
        "continents": ["Europe"],
        "coordinates": {
            "latitude": 44.016521,
            "longitude": 21.005859
        }
    },
    {
        "id": "sc",
        "name": "Seychelles",
        "officialName": "Republic of Seychelles",
        "capitalCities": ["Victoria"],
        "continents": ["Africa"],
        "coordinates": {
            "latitude": -4.679574,
            "longitude": 55.491977
        }
    },
    {
        "id": "sl",
        "name": "Sierra Leone",
        "officialName": "Republic of Sierra Leone",
        "capitalCities": ["Freetown"],
        "continents": ["Africa"],
        "coordinates": {
            "latitude": 8.460555,
            "longitude": -11.779889
        }
    },
    {
        "id": "sg",
        "name": "Singapore",
        "officialName": "Republic of Singapore",
        "capitalCities": ["Singapore"],
        "continents": ["Asia"],
        "coordinates": {
            "latitude": 1.352083,
            "longitude": 103.819836
        }
    },
    {
        "id": "sk",
        "name": "Slovakia",
        "officialName": "Slovak Republic",
        "capitalCities": ["Bratislava"],
        "continents": ["Europe"],
        "coordinates": {
            "latitude": 48.669026,
            "longitude": 19.699024
        }
    },
    {
        "id": "si",
        "name": "Slovenia",
        "officialName": "Republic of Slovenia",
        "capitalCities": ["Ljubljana"],
        "continents": ["Europe"],
        "coordinates": {
            "latitude": 46.151241,
            "longitude": 14.995463
        }
    },
    {
        "id": "sb",
        "name": "Solomon Islands",
        "officialName": "Solomon Islands",
        "capitalCities": ["Honiara"],
        "continents": ["Oceania"],
        "coordinates": {
            "latitude": -9.64571,
            "longitude": 160.156194
        }
    },
    {
        "id": "so",
        "name": "Somalia",
        "officialName": "Federal Republic of Somalia",
        "capitalCities": ["Mogadishu"],
        "continents": ["Africa"],
        "coordinates": {
            "latitude": 5.152149,
            "longitude": 46.199616
        }
    },
    {
        "id": "za",
        "name": "South Africa",
        "officialName": "Republic of South Africa",
        "capitalCities": ["Pretoria", "Bloemfontein", "Cape Town"],
        "continents": ["Africa"],
        "coordinates": {
            "latitude": -30.559482,
            "longitude": 22.937506
        }
    },
    {
        "id": "ss",
        "name": "South Sudan",
        "officialName": "Republic of South Sudan",
        "capitalCities": ["Juba"],
        "continents": ["Africa"],
        "coordinates": {
            "latitude": 6.876991,
            "longitude": 31.306978
        }
    },
    {
        "id": "es",
        "name": "Spain",
        "officialName": "Kingdom of Spain",
        "capitalCities": ["Madrid"],
        "continents": ["Europe"],
        "coordinates": {
            "latitude": 40.463667,
            "longitude": -3.74922
        }
    },
    {
        "id": "lk",
        "name": "Sri Lanka",
        "officialName": "Democratic Socialist Republic of Sri Lanka",
        "capitalCities": ["Sri Jayawardenepura Kotte"],
        "continents": ["Asia"],
        "coordinates": {
            "latitude": 7.873054,
            "longitude": 80.771797
        }
    },
    {
        "id": "sd",
        "name": "Sudan",
        "officialName": "Republic of the Sudan",
        "capitalCities": ["Khartoum"],
        "continents": ["Africa"],
        "coordinates": {
            "latitude": 12.862807,
            "longitude": 30.217636
        }
    },
    {
        "id": "sr",
        "name": "Suriname",
        "officialName": "Republic of Suriname",
        "capitalCities": ["Paramaribo"],
        "continents": ["South America"],
        "coordinates": {
            "latitude": 3.919305,
            "longitude": -56.027783
        }
    },
    {
        "id": "se",
        "name": "Sweden",
        "officialName": "Kingdom of Sweden",
        "capitalCities": ["Stockholm"],
        "continents": ["Europe"],
        "coordinates": {
            "latitude": 60.128161,
            "longitude": 18.643501
        }
    },
    {
        "id": "ch",
        "name": "Switzerland",
        "officialName": "Swiss Confederation",
        "capitalCities": ["Bern"],
        "continents": ["Europe"],
        "coordinates": {
            "latitude": 46.818188,
            "longitude": 8.227512
        }
    },
    {
        "id": "sy",
        "name": "Syria",
        "officialName": "Syrian Arab Republic",
        "capitalCities": ["Damascus"],
        "continents": ["Asia"],
        "coordinates": {
            "latitude": 34.802075,
            "longitude": 38.996815
        }
    },
    {
        "id": "tj",
        "name": "Tajikistan",
        "officialName": "Republic of Tajikistan",
        "capitalCities": ["Dushanbe"],
        "continents": ["Asia"],
        "coordinates": {
            "latitude": 38.861034,
            "longitude": 71.276093
        }
    },
    {
        "id": "tz",
        "name": "Tanzania",
        "officialName": "United Republic of Tanzania",
        "capitalCities": ["Dodoma"],
        "continents": ["Africa"],
        "coordinates": {
            "latitude": -6.369028,
            "longitude": 34.888822
        }
    },
    {
        "id": "th",
        "name": "Thailand",
        "officialName": "Kingdom of Thailand",
        "capitalCities": ["Bangkok"],
        "continents": ["Asia"],
        "coordinates": {
            "latitude": 15.870032,
            "longitude": 100.992541
        }
    },
    {
        "id": "tl",
        "name": "Timor-Leste",
        "officialName": "Democratic Republic of Timor-Leste",
        "capitalCities": ["Dili"],
        "continents": ["Asia"],
        "coordinates": {
            "latitude": -8.874217,
            "longitude": 125.727539
        }
    },
    {
        "id": "tg",
        "name": "Togo",
        "officialName": "Togolese Republic",
        "capitalCities": ["Lomé"],
        "continents": ["Africa"],
        "coordinates": {
            "latitude": 8.619543,
            "longitude": 0.824782
        }
    },
    {
        "id": "to",
        "name": "Tonga",
        "officialName": "Kingdom of Tonga",
        "capitalCities": ["Nuku'alofa"],
        "continents": ["Oceania"],
        "coordinates": {
            "latitude": -21.178986,
            "longitude": -175.198242
        }
    },
    {
        "id": "tt",
        "name": "Trinidad and Tobago",
        "officialName": "Republic of Trinidad and Tobago",
        "capitalCities": ["Port of Spain"],
        "continents": ["South America"],
        "coordinates": {
            "latitude": 10.691803,
            "longitude": -61.222503
        }
    },
    {
        "id": "tn",
        "name": "Tunisia",
        "officialName": "Tunisian Republic",
        "capitalCities": ["Tunis"],
        "continents": ["Africa"],
        "coordinates": {
            "latitude": 33.886917,
            "longitude": 9.537499
        }
    },
    {
        "id": "tr",
        "name": "Turkey",
        "officialName": "Republic of Turkey",
        "capitalCities": ["Ankara"],
        "continents": ["Asia", "Europe"],
        "coordinates": {
            "latitude": 38.963745,
            "longitude": 35.243322
        }
    },
    {
        "id": "tm",
        "name": "Turkmenistan",
        "officialName": "Turkmenistan",
        "capitalCities": ["Ashgabat"],
        "continents": ["Asia"],
        "coordinates": {
            "latitude": 38.969719,
            "longitude": 59.556278
        }
    },
    {
        "id": "tv",
        "name": "Tuvalu",
        "officialName": "Tuvalu",
        "capitalCities": ["Funafuti"],
        "continents": ["Oceania"],
        "coordinates": {
            "latitude": -7.109535,
            "longitude": 177.64933
        }
    },
    {
        "id": "ug",
        "name": "Uganda",
        "officialName": "Republic of Uganda",
        "capitalCities": ["Kampala"],
        "continents": ["Africa"],
        "coordinates": {
            "latitude": 1.373333,
            "longitude": 32.290275
        }
    },
    {
        "id": "ua",
        "name": "Ukraine",
        "officialName": "Ukraine",
        "capitalCities": ["Kyiv"],
        "continents": ["Europe"],
        "coordinates": {
            "latitude": 48.379433,
            "longitude": 31.16558
        }
    },
    {
        "id": "ae",
        "name": "United Arab Emirates",
        "officialName": "United Arab Emirates",
        "capitalCities": ["Abu Dhabi"],
        "continents": ["Asia"],
        "coordinates": {
            "latitude": 23.424076,
            "longitude": 53.847818
        }
    },
    {
        "id": "gb",
        "name": "United Kingdom",
        "officialName": "United Kingdom of Great Britain and Northern Ireland",
        "capitalCities": ["London"],
        "continents": ["Europe"],
        "coordinates": {
            "latitude": 55.378051,
            "longitude": -3.435973
        }
    },
    {
        "id": "us",
        "name": "United States",
        "officialName": "United States of America",
        "capitalCities": ["Washington D.C."],
        "continents": ["North America"],
        "coordinates": {
            "latitude": 37.09024,
            "longitude": -95.712891
        }
    },
    {
        "id": "uy",
        "name": "Uruguay",
        "officialName": "Oriental Republic of Uruguay",
        "capitalCities": ["Montevideo"],
        "continents": ["South America"],
        "coordinates": {
            "latitude": -32.522779,
            "longitude": -55.765835
        }
    },
    {
        "id": "uz",
        "name": "Uzbekistan",
        "officialName": "Republic of Uzbekistan",
        "capitalCities": ["Tashkent"],
        "continents": ["Asia"],
        "coordinates": {
            "latitude": 41.377491,
            "longitude": 64.585262
        }
    },
    {
        "id": "vu",
        "name": "Vanuatu",
        "officialName": "Republic of Vanuatu",
        "capitalCities": ["Port Vila"],
        "continents": ["Oceania"],
        "coordinates": {
            "latitude": -15.376706,
            "longitude": 166.959158
        }
    },
    {
        "id": "ve",
        "name": "Venezuela",
        "officialName": "Bolivarian Republic of Venezuela",
        "capitalCities": ["Caracas"],
        "continents": ["South America"],
        "coordinates": {
            "latitude": 6.42375,
            "longitude": -66.58973
        }
    },
    {
        "id": "vn",
        "name": "Vietnam",
        "officialName": "Socialist Republic of Vietnam",
        "capitalCities": ["Hanoi"],
        "continents": ["Asia"],
        "coordinates": {
            "latitude": 14.058324,
            "longitude": 108.277199
        }
    },
    {
        "id": "ye",
        "name": "Yemen",
        "officialName": "Republic of Yemen",
        "capitalCities": ["Sana'a"],
        "continents": ["Asia"],
        "coordinates": {
            "latitude": 15.552727,
            "longitude": 48.516388
        }
    },
    {
        "id": "zm",
        "name": "Zambia",
        "officialName": "Republic of Zambia",
        "capitalCities": ["Lusaka"],
        "continents": ["Africa"],
        "coordinates": {
            "latitude": -13.133897,
            "longitude": 27.849332
        }
    },
    {
        "id": "zw",
        "name": "Zimbabwe",
        "officialName": "Republic of Zimbabwe",
        "capitalCities": ["Harare"],
        "continents": ["Africa"],
        "coordinates": {
            "latitude": -19.015438,
            "longitude": 29.154857
        }
    }
]
